{"type":"FeatureCollection","features":[{"type":"Feature","properties":{"RECNUM":"1","NAME":"Adourekoman","LAT":"+7.9171586","LON":"+2.2729530","ALTITUDE":"163.1","LONGNAME":"17-JUL-10 1:47:41","Name_1":"Adourekoman","Num_Villag":"V1"},"geometry":{"type":"Point","coordinates":[2.272952952146555,7.917158571524415]}},{"type":"Feature","properties":{"RECNUM":"4","NAME":"Bodjékali","LAT":"+11.8111728","LON":"+3.3817261","ALTITUDE":"173.2","LONGNAME":"14-JUL-10 6:11:52","Name_1":"Bodjékali Vrai","Num_Villag":"V2"},"geometry":{"type":"Point","coordinates":[3.381726106695677,11.811172769652309]}},{"type":"Feature","properties":{"RECNUM":"9","NAME":"Erokowari","LAT":"+7.8408884","LON":"+2.1337682","ALTITUDE":"188.8","LONGNAME":"17-JUL-10 3:14:14","Name_1":"Erokowari","Num_Villag":"V3"},"geometry":{"type":"Point","coordinates":[2.133768181114817,7.840888365664842]}},{"type":"Feature","properties":{"RECNUM":"10","NAME":"Gankpétin","LAT":"+7.7094227","LON":"+2.2090456","ALTITUDE":"191.4","LONGNAME":"17-JUL-10 4:07:35","Name_1":"Gankpétin","Num_Villag":"V4"},"geometry":{"type":"Point","coordinates":[2.209045550544248,7.709422740716771]}},{"type":"Feature","properties":{"RECNUM":"14","NAME":"Garou","LAT":"+11.7967073","LON":"+3.4733457","ALTITUDE":"172.2","LONGNAME":"14-JUL-10 5:25:13","Name_1":"Garou","Num_Villag":"V5"},"geometry":{"type":"Point","coordinates":[3.47334567272998,11.796707281166547]}},{"type":"Feature","properties":{"RECNUM":"17","NAME":"Gomé","LAT":"+7.8705608","LON":"+2.2060757","ALTITUDE":"209.2","LONGNAME":"17-JUL-10 1:28:31","Name_1":"Gomé","Num_Villag":"V6"},"geometry":{"type":"Point","coordinates":[2.206075674614085,7.870560805790526]}},{"type":"Feature","properties":{"RECNUM":"21","NAME":"Kokey","LAT":"+11.3805602","LON":"+2.5227182","ALTITUDE":"289.0","LONGNAME":"15-JUL-10 9:29:59","Name_1":"Kokey Vrai","Num_Villag":"V7"},"geometry":{"type":"Point","coordinates":[2.522718243823962,11.380560205794056]}},{"type":"Feature","properties":{"RECNUM":"23","NAME":"Kokiborou","LAT":"+11.1981936","LON":"+2.3178204","ALTITUDE":"295.0","LONGNAME":"15-JUL-10 8:43:37","Name_1":"Kokiborou Vrai","Num_Villag":"V8"},"geometry":{"type":"Point","coordinates":[2.317820441609662,11.198193629845145]}},{"type":"Feature","properties":{"RECNUM":"24","NAME":"Kommon","LAT":"+11.2869302","LON":"+2.4209324","ALTITUDE":"308.5","LONGNAME":"15-JUL-10 8:06:08","Name_1":"Kommon","Num_Villag":"V9"},"geometry":{"type":"Point","coordinates":[2.420932351257329,11.286930240285127]}},{"type":"Feature","properties":{"RECNUM":"25","NAME":"Lèma","LAT":"+7.8368490","LON":"+2.2255406","ALTITUDE":"206.1","LONGNAME":"11-JUL-10 8:15:54","Name_1":"Lèma","Num_Villag":"V10"},"geometry":{"type":"Point","coordinates":[2.225540633062887,7.83684904270959]}},{"type":"Feature","properties":{"RECNUM":"27","NAME":"Mindédjro","LAT":"+7.8219647","LON":"+2.1122758","ALTITUDE":"189.7","LONGNAME":"17-JUL-10 3:39:39","Name_1":"Mindédjro","Num_Villag":"V11"},"geometry":{"type":"Point","coordinates":[2.112275807927959,7.821964710522569]}},{"type":"Feature","properties":{"RECNUM":"28","NAME":"Monkassa","LAT":"+11.7866854","LON":"+3.3966254","ALTITUDE":"175.6","LONGNAME":"14-JUL-10 5:56:37","Name_1":"Monkassa","Num_Villag":"V12"},"geometry":{"type":"Point","coordinates":[3.396625358670335,11.786685374825787]}},{"type":"Feature","properties":{"RECNUM":"30","NAME":"Ouèdèmè","LAT":"+8.0129261","LON":"+2.1790233","ALTITUDE":"198.4","LONGNAME":"11-JUL-10 9:27:10","Name_1":"Ouèdèmè","Num_Villag":"V13"},"geometry":{"type":"Point","coordinates":[2.179023333599402,8.012926089979015]}},{"type":"Feature","properties":{"RECNUM":"33","NAME":"Soklogbo","LAT":"+7.7749437","LON":"+2.2911931","ALTITUDE":"183.5","LONGNAME":"17-JUL-10 4:46:55","Name_1":"Soklogbo","Num_Villag":"V14"},"geometry":{"type":"Point","coordinates":[2.291193146904582,7.774943658678742]}},{"type":"Feature","properties":{"RECNUM":"34","NAME":"Sokponta","LAT":"+7.8680543","LON":"+2.2183203","ALTITUDE":"210.2","LONGNAME":"17-JUL-10 1:18:32","Name_1":"Sokponta","Num_Villag":"V15"},"geometry":{"type":"Point","coordinates":[2.218320294036694,7.868054281467439]}},{"type":"Feature","properties":{"RECNUM":"35","NAME":"Sowé","LAT":"+7.9798804","LON":"+2.1669386","ALTITUDE":"182.5","LONGNAME":"17-JUL-10 2:37:51","Name_1":"Sowé","Num_Villag":"V16"},"geometry":{"type":"Point","coordinates":[2.166938557070189,7.979880436742768]}},{"type":"Feature","properties":{"RECNUM":"39","NAME":"Tré","LAT":"+7.7424637","LON":"+2.1993486","ALTITUDE":"210.2","LONGNAME":"17-JUL-10 4:19:04","Name_1":"Tré","Num_Villag":"V17"},"geometry":{"type":"Point","coordinates":[2.199348610589274,7.742463700087243]}},{"type":"Feature","properties":{"RECNUM":"40","NAME":"Yawa","LAT":"+7.9458221","LON":"+2.2096836","ALTITUDE":"180.9","LONGNAME":"16-JUL-10 7:43:20","Name_1":"Yawa","Num_Villag":"V18"},"geometry":{"type":"Point","coordinates":[2.209683581013326,7.945822081965875]}}]}
